[
  { "lng": 58.78412, "lat": 35.03017, "title": "بیمارستان مه ولات " },
  { "lng": 46.17723, "lat": 35.52147, "title": " بیمارستان فجر" },
  { "lng": 51.40637, "lat": 35.72038, "title": "بیمارستان شهرام" },
  { "lng": 51.66533, "lat": 32.64969, "title": "بیمارستان عیسی بن مریم" },
  { "lng": 51.95503, "lat": 27.87886, "title": "بیمارستان امام خمینی" },
  { "lng": 58.51039, "lat": 37.09495, "title": "بیمارستان موسی بن جعفر" },
  { "lng": 46.30715942, "lat": 38.05739975, "title": "بیمارستان سینا" },
  { "lng": 46.38586426, "lat": 38.07564926, "title": "بیمارستان امام رضا" },
  { "lng": 46.32387, "lat": 38.05496, "title": "بیمارستان 9 دی" },
  { "lng": 54.37627, "lat": 31.82193, "title": "بیمارستان صدوقی" },
  { "lng": 49.6219, "lat": 31.2646, "title": "بیمارستان امام خمینی" },
  { "lng": 51.48212, "lat": 35.5879, "title": "بیمارستان روانپزشکی رازی" },
  { "lng": 59.12725, "lat": 36.64116, "title": "بیمارستان ثامن الائمه" },
  { "lng": 50.55657, "lat": 29.59128, "title": "بیمارستان امیرالمومنین" },
  { "lng": 61.22409, "lat": 28.20946, "title": "بیمارستان امام خمینی" },
  { "lng": 59.59059, "lat": 36.28938, "title": "مرکز آموزشی درمانی امام رضا" },
  { "lng": 46.23868, "lat": 37.39832, "title": "بیمارستان سینا " },
  { "lng": 51.10323, "lat": 36.71598, "title": "بیمارستان امام خامنه ای" },
  { "lng": 46.27859, "lat": 38.09331, "title": "بیمارستان چشم پزشکی علوی" },
  { "lng": 48.11934, "lat": 34.79312, "title": "بیمارستان امام خمینی" },
  { "lng": 46.22067, "lat": 37.42109, "title": "بیمارستان امیرالمومنین" },
  { "lng": 50.68882751, "lat": 34.00112915, "title": "بیمارستان امام صادق" },
  { "lng": 51.01357, "lat": 35.81914, "title": "بیمارستان امام علی" },
  { "lng": 50.88654, "lat": 34.64687, "title": "بیمارستان دکتر کامکار" },
  { "lng": 48.52412, "lat": 30.00683, "title": "بیمارستان حضرت زینب" },
  { "lng": 46.3745, "lat": 35.30533, "title": "بیمارستان شهید چمران" },
  { "lng": 48.28318787, "lat": 38.22764206, "title": "بیمارستان امام خمینی" },
  { "lng": 48.51274872, "lat": 37.63514328, "title": "بیمارستان امام خمینی" },
  { "lng": 44.96783, "lat": 38.55654, "title": "بیمارستان امام خمینی" },
  { "lng": 56.56193, "lat": 30.80713, "title": "بیمارستان جدید" },
  { "lng": 54.81493, "lat": 36.89471, "title": "بیمارستان بقیه الله" },
  { "lng": 48.19022369, "lat": 31.56112099, "title": "بیمارستان شهید چمران" },
  { "lng": 46.097332, "lat": 37.16772842, "title": "بیمارستان فارابی" },
  { "lng": 59.10357, "lat": 37.45446, "title": "بیمارستان امام خمینی" },
  { "lng": 48.27127, "lat": 33.85905, "title": "بیمارستان امام خمینی الشتر" },
  { "lng": 46.27242, "lat": 36.2527, "title": "بیمارستان تامین اجتماعی" },
  { "lng": 46.26048, "lat": 36.23465, "title": "بیمارستان امام خمینی" },
  { "lng": 59.8756, "lat": 35.68471, "title": "بیمارستان حضرت زهرا" },
  {
    "lng": 48.01858,
    "lat": 33.56251,
    "title": "بیمارستان امام خمینی دوره چگنی"
  },
  { "lng": 57.93808, "lat": 37.39274, "title": "بیمارستان قدیمی" },
  { "lng": 45.88481, "lat": 37.48982, "title": "بیمارستان امام خمینی" },
  { "lng": 51.31139, "lat": 35.64362, "title": "بیمارستان شهدای بافت آباد" },
  { "lng": 52.73535, "lat": 36.36203, "title": "بیمارستان 17 شهریور" },
  { "lng": 53.54277, "lat": 36.69773, "title": "بیمارستان قدیم بهشهر" },
  { "lng": 59.79573, "lat": 32.58275, "title": "بیمارستان علی بن ابی طالب" },
  { "lng": 53.22623, "lat": 28.96082, "title": "بیمارستان خفر " },
  { "lng": 52.46029, "lat": 29.63608, "title": "بیمارستان مهر" },
  { "lng": 62.34864, "lat": 27.36471, "title": "بیمارستان جدید سراوان" },
  { "lng": 49.303694, "lat": 31.956008, "title": "بیمارستان قدیم" },
  { "lng": 53.607557, "lat": 27.219891, "title": "بیمارستان اشکنان" },
  { "lng": 57.190511, "lat": 27.455174, "title": "بیمارستان علی بن ابی طالب" },
  { "lng": 48.808945, "lat": 34.313916, "title": "بیمارستان مهر ملایر" },
  { "lng": 55.369169, "lat": 37.226222, "title": "بیمارستان فاطمه زهرا " },
  { "lng": 50.090029, "lat": 33.629769, "title": "کلینیک ویژه خمین" },
  { "lng": 51.561387, "lat": 35.446615, "title": "بیمارستان شهید ستاری" },
  { "lng": 50.155853, "lat": 37.191652, "title": "بیمارستان امینی" },
  {
    "lng": 49.569839,
    "lat": 37.268416,
    "title": "مرکز بهداشتی درمانی رازی رشت"
  },
  { "lng": 56.014473, "lat": 31.883368, "title": "بیمارستان حکیم" },
  { "lng": 50.476689, "lat": 35.296073, "title": "بیمارستان امام رضا" },
  { "lng": 50.00944, "lat": 37.198913, "title": "بیمارستان قدیمی لاهیجان" },
  { "lng": 53.581376, "lat": 36.691869, "title": "بیمارستان خاتم الانبیا" },
  { "lng": 51.082882, "lat": 35.47745, "title": "بیمارستان فاطمه الزهرا" },
  { "lng": 50.873954, "lat": 34.67929, "title": "بیمارستان حضرت فاطمه معصومه" },
  { "lng": 59.4747007, "lat": 27.47070849, "title": "بیمارستان دلگان" },
  { "lng": 55.271254, "lat": 30.861724, "title": "بیمارستان انار" },
  { "lng": 47.538526, "lat": 37.943706, "title": "امام خمینی" },
  { "lng": 51.573606, "lat": 30.667328, "title": "بیمارستان شهید جلیل" },
  { "lng": 61.488747, "lat": 30.986609, "title": "بیمارستان سینا" },
  { "lng": 55.673279, "lat": 36.4091, "title": "بیمارستان میامی " },
  { "lng": 49.142114, "lat": 37.553828, "title": "بیمارستان شهدای رضوانشر" },
  { "lng": 52.858573, "lat": 36.461639, "title": "مرکز آموزشی درمانی رازی " },
  { "lng": 52.344219, "lat": 36.399433, "title": "بیمارستان امام خمینی " },
  { "lng": 56.228983, "lat": 27.173851, "title": "بیمارستان سیدالشهدا ارتش" },
  { "lng": 57.100773, "lat": 26.527764, "title": "بیمارستان سیریک" },
  { "lng": 50.821434, "lat": 28.927185, "title": "بیمارستان نیروهوایی ارتش" },
  { "lng": 59.229536, "lat": 32.851324, "title": "بیمارستان ایرانمهر" },
  { "lng": 51.387782, "lat": 35.720643, "title": "مرکز جراحی قلب" },
  {
    "lng": 48.54163742,
    "lat": 34.79179001,
    "title": " بیمارستان تخصصی و فوق تخصصی بعثت"
  },
  { "lng": 47.01877975, "lat": 35.30116272, "title": " بیمارستان توحید" },
  { "lng": 51.40346146, "lat": 35.69902039, "title": " بیمارستان مدائن" },
  { "lng": 51.3591423, "lat": 35.65768433, "title": " بیمارستان ضیاییان" },
  { "lng": 51.41462708, "lat": 35.71831131, "title": " بیمارستان محب یاس" },
  { "lng": 51.37303925, "lat": 35.69422913, "title": " بیمارستان لولاگر" },
  { "lng": 51.36159897, "lat": 35.76541138, "title": " بیمارستان آتیه" },
  { "lng": 51.48435211, "lat": 35.72117615, "title": " بیمارستان انصاری" },
  { "lng": 51.44974899, "lat": 35.6631813, "title": " بیمارستان شهدای گمنام" },
  { "lng": 51.4347229, "lat": 35.69536972, "title": " بیمارستان طرفه" },
  { "lng": 51.4521637, "lat": 35.70618057, "title": " بیمارستان امام حسین" },
  { "lng": 57.09793091, "lat": 30.25409889, "title": " بیمارستان افضلی پور" },
  { "lng": 60.86594772, "lat": 29.49183083, "title": " بیمارستان بوعلی" },
  { "lng": 48.67115021, "lat": 31.32647896, "title": " بیمارستان رازی" },
  {
    "lng": 52.54221725,
    "lat": 29.62555885,
    "title": " بیمارستان حضرت علی اصغر"
  },
  { "lng": 47.09876633, "lat": 34.3920784, "title": " بیمارستان امام رضا" },
  {
    "lng": 45.07334137,
    "lat": 37.53552246,
    "title": " بیمارستان آیت اله طالقانی"
  },
  {
    "lng": 49.71459579,
    "lat": 34.10654831,
    "title": " بیمارستان آیت اله خوانساری"
  },
  { "lng": 48.2962265, "lat": 38.2421608, "title": " بیمارستان بوعلی" },
  { "lng": 48.27145767, "lat": 38.22857666, "title": " بیمارستان امام رضا" },
  {
    "lng": 48.23567963,
    "lat": 30.3866806,
    "title": " بیمارستان آیت اله طالقانی"
  },
  { "lng": 53.37253189, "lat": 35.59780121, "title": " بیمارستان کوثر" },
  {
    "lng": 53.36737061,
    "lat": 35.57324982,
    "title": " بیمارستان امیرالمومنین"
  },
  { "lng": 59.58759689, "lat": 36.28799438, "title": " بیمارستان ارتش" },
  { "lng": 59.45428848, "lat": 36.42590332, "title": " بیمارستان طالقانی" },
  { "lng": 57.74911118, "lat": 28.68206978, "title": " بیمارستان امام خمینی" },
  {
    "lng": 57.87413025,
    "lat": 27.53302002,
    "title": " بیمارستان شهدای قلعه گنج"
  },
  { "lng": 55.66216278, "lat": 29.44441986, "title": " بیمارستان امام رضا" },
  { "lng": 44.94984055, "lat": 38.55358124, "title": " بیمارستان قمربنی هاشم" },
  { "lng": 58.81323242, "lat": 36.21547699, "title": " بیمارستان حکیم" },
  { "lng": 48.36090088, "lat": 33.50278091, "title": " بیمارستان شهدای عشایر" },
  { "lng": 48.27453995, "lat": 33.43397903, "title": " بیمارستان ۵۲۵ ارتش" },
  { "lng": 51.44433212, "lat": 33.98736572, "title": " بیمارستان تقوی" },
  { "lng": 51.6521492, "lat": 32.64416885, "title": " بیمارستان شهید بهشتی" },
  { "lng": 48.51622009, "lat": 36.67779922, "title": " بیمارستان ولیعصر" },
  { "lng": 51.50757217, "lat": 36.64968872, "title": " بیمارستان شهید بهشتی" },
  {
    "lng": 51.38256836,
    "lat": 35.66856003,
    "title": " بیمارستان کودکان شهید فهمیده"
  },
  { "lng": 50.92642212, "lat": 35.86047363, "title": " بیمارستان کوثر" },
  {
    "lng": 50.61547852,
    "lat": 35.9467392,
    "title": " بیمارستان امام حسن مجتبی"
  },
  { "lng": 52.52069092, "lat": 29.63153076, "title": " بیمارستان امام رضا" },
  {
    "lng": 54.42549896,
    "lat": 31.56917953,
    "title": " بیمارستان حضرت فاطمه الزهرا"
  },
  { "lng": 52.04027939, "lat": 35.69553757, "title": " بیمارستان ۳ شعبان" },
  { "lng": 56.36732864, "lat": 28.45067978, "title": " بیمارستان امام حسین" },
  { "lng": 56.56066895, "lat": 29.91046906, "title": " بیمارستان قائم" },
  { "lng": 56.25505829, "lat": 26.95345116, "title": " بیمارستان پیامبراعظم" },
  { "lng": 49.85568619, "lat": 31.847435, "title": " بیمارستان شهدای ایذه" },
  {
    "lng": 53.21118164,
    "lat": 29.27514076,
    "title": " بیمارستان شهدای سروستان"
  },
  { "lng": 47.68293762, "lat": 34.4803009, "title": " بیمارستان دکتر معاون" },
  { "lng": 51.76454163, "lat": 32.6258316, "title": " بیمارستان فارابی" },
  {
    "lng": 51.32059479,
    "lat": 32.62325668,
    "title": " بیمارستان فاطمه الزهرا"
  },
  {
    "lng": 47.27912903,
    "lat": 32.69556808,
    "title": " بیمارستان شهدای دهلران"
  },
  { "lng": 46.17350006, "lat": 33.1142807, "title": " بیمارستان امام حسین" },
  { "lng": 52.0483017, "lat": 27.85589027, "title": " بیمارستان امام خمینی" },
  { "lng": 59.23308945, "lat": 32.85879898, "title": " بیمارستان ولیعصر" },
  { "lng": 59.23308945, "lat": 32.85879898, "title": " بیمارستان ولیعصر" },
  { "lng": 57.32130051, "lat": 37.45389938, "title": " بیمارستان امام علی" },
  { "lng": 58.21334839, "lat": 37.22654724, "title": " بیمارستان شهدای فاروج" },
  { "lng": 49.64208984, "lat": 34.0839386, "title": " بیمارستان امیرالمومنین" },
  { "lng": 48.33736038, "lat": 39.37322998, "title": " بیمارستان امام خمینی" },
  { "lng": 48.07289886, "lat": 39.04613113, "title": " بیمارستان ولایت" },
  { "lng": 50.86252213, "lat": 32.32761765, "title": " بیمارستان هاجر" },
  {
    "lng": 53.65781021,
    "lat": 28.93517113,
    "title": " بیمارستان دکتر علی شریعتی"
  },
  { "lng": 55.17037964, "lat": 37.09978104, "title": " بیمارستان حضرت معصومه" },
  { "lng": 49.20521164, "lat": 36.19782257, "title": " بیمارستان بوعلی سینا" },
  {
    "lng": 50.37009048,
    "lat": 35.02180862,
    "title": " بیمارستان شهدای ۱۷ شهریور"
  },
  {
    "lng": 45.88616943,
    "lat": 35.98793793,
    "title": " بیمارستان صلاح الدین ایوبی"
  },
  { "lng": 50.19283295, "lat": 37.09606934, "title": " بیمارستان نیکوکار" },
  { "lng": 49.12200928, "lat": 37.39191055, "title": " بیمارستان رسالت" },
  {
    "lng": 59.58559036,
    "lat": 36.31768799,
    "title": " بیمارستان خاتم الانبیا"
  },
  { "lng": 52.54848862, "lat": 36.68817139, "title": " بیمارستان امام خمینی" },
  { "lng": 50.89768219, "lat": 35.82150269, "title": " بیمارستان ثارالله" },
  { "lng": 51.77375793, "lat": 35.42987061, "title": " بیمارستان زعیم" },
  {
    "lng": 50.35560226,
    "lat": 33.48222351,
    "title": " بیمارستان آیت اله گلپایگانی"
  },
  {
    "lng": 57.40830994,
    "lat": 37.21775055,
    "title": " بیمارستان امام حسن مجتبی"
  },
  { "lng": 48.5079689, "lat": 34.78828049, "title": " بیمارستان قلب فرشچیان" },
  { "lng": 57.67433929, "lat": 36.24745941, "title": " بیمارستان محمد واسعی" },
  { "lng": 53.94936371, "lat": 36.77596283, "title": " بیمارستان شهدا" },
  { "lng": 51.49429321, "lat": 35.68861008, "title": " بیمارستان ۵۰۶ ارتش" },
  { "lng": 50.00481033, "lat": 36.27471924, "title": " بیمارستان بوعلی سینا" },
  { "lng": 48.90954971, "lat": 37.80062103, "title": " بیمارستان نورانی" },
  {
    "lng": 59.58559036,
    "lat": 36.31768799,
    "title": " بیمارستان خاتم الانبیا"
  },
  {
    "lng": 50.37015152,
    "lat": 35.71994019,
    "title": " بیمارستان فاطمه الزهرا"
  },
  { "lng": 52.36008835, "lat": 30.00728989, "title": " بیمارستان قمربنی هاشم" },
  { "lng": 51.86315155, "lat": 32.01009369, "title": " بیمارستان صاحب الزمان" },
  { "lng": 51.38063812, "lat": 28.62830925, "title": " بیمارستان زینبیه" },
  { "lng": 52.49024963, "lat": 35.25193024, "title": " بیمارستان امام حسین" },
  {
    "lng": 49.82888031,
    "lat": 30.69684029,
    "title": " بیمارستان اشرفی اصفهانی آغاجاری"
  },
  { "lng": 57.05784988, "lat": 30.28504562, "title": " بیمارستان سیدالشهدا" },
  { "lng": 57.05516052, "lat": 30.27065849, "title": " بیمارستان جواد الائمه" },
  { "lng": 49.40718079, "lat": 30.88301849, "title": " بیمارستان رسول اکرم" },
  { "lng": 45.07292557, "lat": 37.53779221, "title": " بیمارستان فاطمیه" },
  {
    "lng": 47.27912903,
    "lat": 32.69556808,
    "title": " بیمارستان شهدای دهلران"
  },
  { "lng": 48.29371262, "lat": 38.20170975, "title": " بلوار کوثر" },
  { "lng": 51.27639008, "lat": 31.96115875, "title": " بیمارستان ولیعصر" },
  { "lng": 59.58224487, "lat": 36.32509613, "title": " بیمارستان ابن سینا" },
  { "lng": 51.38074112, "lat": 35.70762634, "title": " بیمارستان امام خمینی" },
  { "lng": 51.41252518, "lat": 35.68631744, "title": " بیمارستان سینا" },
  { "lng": 51.40822983, "lat": 35.67193222, "title": " بیمارستان رازی" },
  {
    "lng": 51.49663162,
    "lat": 35.81628799,
    "title": " بیمارستان مسیح دانشوری"
  },
  { "lng": 52.5289917, "lat": 29.62638474, "title": " بیمارستان فقیهی" },
  { "lng": 46.54796982, "lat": 33.77425003, "title": " بیمارستان امام علی" },
  {
    "lng": 48.38286972,
    "lat": 32.39773941,
    "title": " بیمارستان دکتر گنجویان"
  },
  {
    "lng": 48.66668701,
    "lat": 31.33335304,
    "title": " بیمارستان شهید نیاکی ارتش"
  },
  { "lng": 46.34267044, "lat": 38.05739212, "title": " بیمارستان ۲۹ بهمن" },
  { "lng": 57.4250679, "lat": 33.85522079, "title": " بیمارستان شفا" },
  {
    "lng": 49.70229721,
    "lat": 34.50687027,
    "title": " بیمارستان فرهنگ خسروانی"
  },
  { "lng": 57.52746964, "lat": 37.06703949, "title": " بیمارستان امام خمینی" },
  { "lng": 49.21708679, "lat": 36.14829636, "title": "بیمارستان اعلائی" },
  { "lng": 54.99893188, "lat": 36.42087936, "title": " بیمارستان امام حسین" },
  { "lng": 54.22628021, "lat": 31.76788139, "title": " بیمارستان شهید بهشتی" },
  { "lng": 51.53231812, "lat": 32.8955307, "title": " بیمارستان گلدیس" },
  {
    "lng": 60.02336884,
    "lat": 32.91091156,
    "title": " بیمارستان خاتم الانبیا"
  },
  { "lng": 50.00278854, "lat": 34.69795227, "title": " بیمارستان والفجر" },
  { "lng": 54.04107285, "lat": 29.12339973, "title": " بیمارستان امام خمینی" },
  {
    "lng": 49.66569901,
    "lat": 33.3915596,
    "title": " بیمارستان شهید علیرضا ولیان"
  },
  { "lng": 49.21042252, "lat": 36.14517212, "title": "بیمارستان اعلائی" },
  { "lng": 49.64354706, "lat": 34.07912827, "title": "بیمارستان امیر" },
  { "lng": 59.43441391, "lat": 36.34611893, "title": "بیمارستان شریعتی" }
]
